[
  {
    "order": 1,
    "crossing_name": "Good Neighbor Bridge",
    "code": "ELP-ELP-GOOD",
    "region": "El Paso",
    "county": "El Paso",
    "txdot_district": "El Paso",
    "port_of_entry": "El Paso",
    "city": "El Paso",
    "address": "1001 S Stanton St, El Paso, TX 79901",
    "lat": 31.748237,
    "lon": -106.482685,
    "data_crossing_name": "Good Neighbor Bridge"
  },
  {
    "order": 2,
    "crossing_name": "Paso del Norte Bridge",
    "code": "ELP-ELP-PASO",
    "region": "El Paso",
    "county": "El Paso",
    "txdot_district": "El Paso",
    "port_of_entry": "El Paso",
    "city": "El Paso",
    "address": "1000 S El Paso St, El Paso, TX 79901",
    "lat": 31.747743,
    "lon": -106.486957,
    "data_crossing_name": "Paso del Norte Bridge"
  },
  {
    "order": 3,
    "crossing_name": "Bridge of the Americas",
    "code": "ELP-ELP-BRID",
    "region": "El Paso",
    "county": "El Paso",
    "txdot_district": "El Paso",
    "port_of_entry": "El Paso",
    "city": "El Paso",
    "address": "3600 E Paisano Dr, El Paso, TX 79905",
    "lat": 31.764479,
    "lon": -106.451596,
    "data_crossing_name": "Bridge of the Americas"
  },
  {
    "order": 4,
    "crossing_name": "BNSF Railroad Rail Bridge",
    "code": "ELP-ELP-ELPA-BNSF",
    "region": "El Paso",
    "county": "El Paso",
    "txdot_district": "El Paso",
    "port_of_entry": "El Paso",
    "city": "El Paso",
    "address": "805 S Santa Fe St El Paso, TX 79901",
    "lat": 31.747985,
    "lon": -106.488242,
    "data_crossing_name": "El Paso Railroad Bridges"
  },
  {
    "order": 5,
    "crossing_name": "Union Pacific Railroad Rail Bridge",
    "code": "ELP-ELP-ELPA-UP",
    "region": "El Paso",
    "county": "El Paso",
    "txdot_district": "El Paso",
    "port_of_entry": "El Paso",
    "city": "El Paso",
    "address": "1115 Cesar E. Chavez Border Hwy, El Paso, TX 79901",
    "lat": 31.747767,
    "lon": -106.484833,
    "data_crossing_name": "El Paso Railroad Bridges"
  },
  {
    "order": 6,
    "crossing_name": "Ysleta Bridge",
    "code": "ELP-YSL-YSLE",
    "region": "El Paso",
    "county": "El Paso",
    "txdot_district": "El Paso",
    "port_of_entry": "Ysleta",
    "city": "El Paso",
    "address": "791 S Zaragoza Rd, El Paso, TX 79927",
    "lat": 31.670966,
    "lon": -106.337869,
    "data_crossing_name": "Ysleta Bridge"
  },
  {
    "order": 7,
    "crossing_name": "Marcelino Serna Bridge",
    "code": "ELP-TOR-MARC",
    "region": "El Paso",
    "county": "El Paso",
    "txdot_district": "El Paso",
    "port_of_entry": "Marcelino Serna",
    "city": "Tornillo",
    "address": "1400 Lower Island Rd, Tornillo, TX 79853",
    "lat": 31.432854,
    "lon": -106.147961,
    "data_crossing_name": "Marcelino Serna Bridge"
  },
  {
    "order": 8,
    "crossing_name": "Fort Hancock-El Porvenir Bridge",
    "code": "ELP-TOR-FORT",
    "region": "El Paso",
    "county": "Hudspeth",
    "txdot_district": "El Paso",
    "port_of_entry": "Marcelino Serna",
    "city": "Fort Hancock",
    "address": "828 South HWY 1088, Fort Hancock, TX 79839",
    "lat": 31.273184,
    "lon": -105.854543,
    "data_crossing_name": "Fort Hancock-El Porvenir Bridge"
  },
  {
    "order": 9,
    "crossing_name": "Presidio-Ojinaga International Bridge",
    "code": "ELP-PSD-PRES",
    "region": "El Paso",
    "county": "Presidio",
    "txdot_district": "El Paso",
    "port_of_entry": "Presidio",
    "city": "Presidio",
    "address": "4902 US-67, Presidio, TX 79845",
    "lat": 29.561906,
    "lon": -104.395144,
    "data_crossing_name": "Presidio-Ojinaga International Bridge"
  },
  {
    "order": 10,
    "crossing_name": "Boquillas",
    "code": "ELP-BOQ-BOQU",
    "region": "El Paso",
    "county": "Brewster",
    "txdot_district": "El Paso",
    "port_of_entry": "",
    "city": "Big Bend National Park",
    "address": "Big Bend National Park, TX 79834",
    "lat": 29.188742,
    "lon": -102.945046,
    "data_crossing_name": "Boquillas"
  },
  {
    "order": 11,
    "crossing_name": "Lake Amistad Dam Crossing",
    "code": "LRD-DLR-LAKA",
    "region": "Laredo",
    "county": "Val Verde",
    "txdot_district": "Laredo",
    "port_of_entry": "Del Rio",
    "city": "Del Rio",
    "address": "877 TX-349 Spur, Del Rio, TX 78840",
    "lat": 29.449874,
    "lon": -101.058041,
    "data_crossing_name": "Lake Amistad Dam Crossing"
  },
  {
    "order": 12,
    "crossing_name": "Del Rio International Bridge",
    "code": "LRD-DLR-DELR",
    "region": "Laredo",
    "county": "Val Verde",
    "txdot_district": "Laredo",
    "port_of_entry": "Del Rio",
    "city": "Del Rio",
    "address": "3140 State Loop 239, Del Rio, TX 78840",
    "lat": 29.326882,
    "lon": -100.927491,
    "data_crossing_name": "Del Rio International Bridge"
  },
  {
    "order": 13,
    "crossing_name": "Eagle Pass International Bridge",
    "code": "LRD-EGP-EAGL",
    "region": "Laredo",
    "county": "Maverick",
    "txdot_district": "Laredo",
    "port_of_entry": "Eagle Pass",
    "city": "Eagle Pass",
    "address": "160 E Garrison St, Eagle Pass, TX 78852",
    "lat": 28.705495,
    "lon": -100.511724,
    "data_crossing_name": "Eagle Pass International Bridge"
  },
  {
    "order": 14,
    "crossing_name": "Camino Real International Bridge",
    "code": "LRD-EGP-CAMI",
    "region": "Laredo",
    "county": "Maverick",
    "txdot_district": "Laredo",
    "port_of_entry": "Eagle Pass",
    "city": "Eagle Pass",
    "address": "500 S Monroe St, Eagle Pass, TX 78852",
    "lat": 28.697698,
    "lon": -100.510461,
    "data_crossing_name": "Camino Real International Bridge"
  },
  {
    "order": 15,
    "crossing_name": "Union Pacific Eagle Pass Railroad Bridge",
    "code": "LRD-EGP-UNIO",
    "region": "Laredo",
    "county": "Maverick",
    "txdot_district": "Laredo",
    "port_of_entry": "Eagle Pass",
    "city": "Eagle Pass",
    "address": "394 N Converse St, Eagle Pass, TX 78852",
    "lat": 28.696318,
    "lon": -100.510377,
    "data_crossing_name": "Union Pacific Eagle Pass Railroad Bridge"
  },
  {
    "order": 16,
    "crossing_name": "Gateway to the Americas Bridge",
    "code": "LRD-LRD-GTAB",
    "region": "Laredo",
    "county": "Webb",
    "txdot_district": "Laredo",
    "port_of_entry": "Laredo",
    "city": "Laredo",
    "address": "100 Convent Ave, Laredo, TX 78040",
    "lat": 27.499484,
    "lon": -99.507481,
    "data_crossing_name": "Gateway to the Americas Bridge"
  },
  {
    "order": 17,
    "crossing_name": "Juárez-Lincoln International Bridge",
    "code": "LRD-LRD-JUAR",
    "region": "Laredo",
    "county": "Webb",
    "txdot_district": "Laredo",
    "port_of_entry": "Laredo",
    "city": "Laredo",
    "address": "201 Santa Ursula Ave, Laredo, TX 78040",
    "lat": 27.500438,
    "lon": -99.502723,
    "data_crossing_name": "Juárez-Lincoln International Bridge"
  },
  {
    "order": 18,
    "crossing_name": "World Trade Bridge",
    "code": "LRD-LRD-WORL",
    "region": "Laredo",
    "county": "Webb",
    "txdot_district": "Laredo",
    "port_of_entry": "Laredo",
    "city": "Laredo",
    "address": "11601 FM 1472, Laredo, TX 78045",
    "lat": 27.597208,
    "lon": -99.536873,
    "data_crossing_name": "World Trade Bridge"
  },
  {
    "order": 19,
    "crossing_name": "Colombia Solidarity Bridge",
    "code": "LRD-LRD-COLO",
    "region": "Laredo",
    "county": "Webb",
    "txdot_district": "Laredo",
    "port_of_entry": "Laredo",
    "city": "Laredo",
    "address": "202 State Highway 255 Laredo, Texas 78045",
    "lat": 27.699841,
    "lon": -99.745612,
    "data_crossing_name": "Colombia Solidarity Bridge"
  },
  {
    "order": 20,
    "crossing_name": "Canadian Pacific Kansas City Laredo Railroad Bridge",
    "code": "LRD-LRD-CANA",
    "region": "Laredo",
    "county": "Webb",
    "txdot_district": "Laredo",
    "port_of_entry": "Laredo",
    "city": "Laredo",
    "address": "2115 Farragut St, Laredo, TX 78040",
    "lat": 27.498402,
    "lon": -99.516263,
    "data_crossing_name": "Canadian Pacific Kansas City Laredo Railroad Bridge"
  },
  {
    "order": 21,
    "crossing_name": "Lake Falcon Dam International Crossing",
    "code": "RGV-ROM-LAKF",
    "region": "Rio Grande Valley",
    "county": "Starr",
    "txdot_district": "Pharr",
    "port_of_entry": "Roma",
    "city": "Falcon Heights",
    "address": "153 Farm to Market Rd 2098 Spur, Roma, TX 78584",
    "lat": 26.559422,
    "lon": -99.166961,
    "data_crossing_name": "Lake Falcon Dam International Crossing"
  },
  {
    "order": 22,
    "crossing_name": "Roma-Ciudad Miguel Alemán International Bridge",
    "code": "RGV-ROM-ROMA",
    "region": "Rio Grande Valley",
    "county": "Starr",
    "txdot_district": "Pharr",
    "port_of_entry": "Roma",
    "city": "Roma",
    "address": "405 Estrella St APT B, Roma, TX 78584",
    "lat": 26.403879,
    "lon": -99.019036,
    "data_crossing_name": "Roma-Ciudad Miguel Alemán International Bridge"
  },
  {
    "order": 23,
    "crossing_name": "Starr-Camargo Bridge",
    "code": "RGV-RGC-STAR",
    "region": "Rio Grande Valley",
    "county": "Starr",
    "txdot_district": "Pharr",
    "port_of_entry": "Rio Grande City",
    "city": "Rio Grande City",
    "address": "317 Pete Diaz Ave, Rio Grande City, TX 78582",
    "lat": 26.365855,
    "lon": -98.802404,
    "data_crossing_name": "Starr-Camargo Bridge"
  },
  {
    "order": 24,
    "crossing_name": "Los Ebanos Ferry",
    "code": "RGV-RGC-LOSE",
    "region": "Rio Grande Valley",
    "county": "Hidalgo",
    "txdot_district": "Pharr",
    "port_of_entry": "Rio Grande City",
    "city": "Los Ebanos",
    "address": "200 Flores St, Los Ebanos, TX 78565",
    "lat": 26.239494,
    "lon": -98.565036,
    "data_crossing_name": "Los Ebanos Ferry"
  },
  {
    "order": 25,
    "crossing_name": "Anzalduas International Bridge",
    "code": "RGV-HID-ANZA",
    "region": "Rio Grande Valley",
    "county": "Hidalgo",
    "txdot_district": "Pharr",
    "port_of_entry": "Hidalgo",
    "city": "Mission",
    "address": "6100 S Stewart Rd, Mission, TX 78572",
    "lat": 26.116589,
    "lon": -98.318268,
    "data_crossing_name": "Anzalduas International Bridge"
  },
  {
    "order": 26,
    "crossing_name": "McAllen-Hidalgo International Bridge",
    "code": "RGV-HID-MCAL",
    "region": "Rio Grande Valley",
    "county": "Hidalgo",
    "txdot_district": "Pharr",
    "port_of_entry": "Hidalgo",
    "city": "Hidalgo",
    "address": "1023 S. International Blvd. Hidalgo, TX 78557",
    "lat": 26.095424,
    "lon": -98.271909,
    "data_crossing_name": "McAllen-Hidalgo International Bridge"
  },
  {
    "order": 27,
    "crossing_name": "Pharr International Bridge",
    "code": "RGV-HID-PHAR",
    "region": "Rio Grande Valley",
    "county": "Hidalgo",
    "txdot_district": "Pharr",
    "port_of_entry": "Hidalgo",
    "city": "Pharr",
    "address": "9900 S Cage Blvd, Pharr, TX 78577",
    "lat": 26.066916,
    "lon": -98.205235,
    "data_crossing_name": "Pharr International Bridge"
  },
  {
    "order": 28,
    "crossing_name": "Donna-Rio Bravo International Bridge",
    "code": "RGV-PRG-DONN",
    "region": "Rio Grande Valley",
    "county": "Hidalgo",
    "txdot_district": "Pharr",
    "port_of_entry": "Progreso",
    "city": "Donna",
    "address": "8000 S International Blvd, Donna, TX 78537",
    "lat": 26.065651,
    "lon": -98.075671,
    "data_crossing_name": "Donna-Rio Bravo International Bridge"
  },
  {
    "order": 29,
    "crossing_name": "Progreso International Bridge",
    "code": "RGV-PRG-PROG",
    "region": "Rio Grande Valley",
    "county": "Hidalgo",
    "txdot_district": "Pharr",
    "port_of_entry": "Progreso",
    "city": "Progreso",
    "address": "100 S International Blvd, Weslaco, TX 78596",
    "lat": 26.062279,
    "lon": -97.949994,
    "data_crossing_name": "Progreso International Bridge"
  },
  {
    "order": 30,
    "crossing_name": "Free Trade International Bridge (Los Indios)",
    "code": "RGV-BRW-FREE",
    "region": "Rio Grande Valley",
    "county": "Cameron",
    "txdot_district": "Pharr",
    "port_of_entry": "Brownsville",
    "city": "Los Indios",
    "address": "100 S. Los Indios Blvd., Los Indios, TX. 78567",
    "lat": 26.029172,
    "lon": -97.73885,
    "data_crossing_name": "Free Trade International Bridge (Los Indios)"
  },
  {
    "order": 31,
    "crossing_name": "Brownsville & Matamoros Express Bridge",
    "code": "RGV-BRW-BROW",
    "region": "Rio Grande Valley",
    "county": "Cameron",
    "txdot_district": "Pharr",
    "port_of_entry": "Brownsville",
    "city": "Brownsville",
    "address": "1300 Mexico Blvd, Brownsville, TX 78520",
    "lat": 25.892029,
    "lon": -97.504685,
    "data_crossing_name": "Brownsville & Matamoros Express Bridge"
  },
  {
    "order": 32,
    "crossing_name": "Gateway International Bridge",
    "code": "RGV-BRW-GATE",
    "region": "Rio Grande Valley",
    "county": "Cameron",
    "txdot_district": "Pharr",
    "port_of_entry": "Brownsville",
    "city": "Brownsville",
    "address": "510 E. 14th Street, Brownsville TX 78520",
    "lat": 25.898899,
    "lon": -97.497516,
    "data_crossing_name": "Gateway International Bridge"
  },
  {
    "order": 33,
    "crossing_name": "West Rail Bridge",
    "code": "RGV-BRW-WEST",
    "region": "Rio Grande Valley",
    "county": "Cameron",
    "txdot_district": "Pharr",
    "port_of_entry": "Brownsville",
    "city": "Brownsville",
    "address": "1550 W University Blvd, Brownsville, TX 78520",
    "lat": 25.962514,
    "lon": -97.583291,
    "data_crossing_name": "West Rail Bridge"
  },
  {
    "order": 34,
    "crossing_name": "Veterans International Bridge at Los Tomates",
    "code": "RGV-BRW-VETE",
    "region": "Rio Grande Valley",
    "county": "Cameron",
    "txdot_district": "Pharr",
    "port_of_entry": "Brownsville",
    "city": "Brownsville",
    "address": "3310 US-77, Brownsville, TX 78521",
    "lat": 25.883758,
    "lon": -97.476112,
    "data_crossing_name": "Veterans International Bridge at Los Tomates"
  }
]